{
    "posts": [
        {
            "id": 1,
            "title": "Степана Бандери, 13",
            "phone": "+38 (066) 171-13-27",
            "adress": "м. Луцьк, Степана Бандери, 13",
            "selfPickup": false,
            "time": ["09:00", "22:00"],
            "lat": "50.7438",
            "lng": "25.3189",
            "url": "stores/6"
        },
        {
            "id": 2,
            "title": "Відродження, 33",
            "phone": "+38 (066) 171-13-27",
            "adress": "м. Луцьк, пр. Відродження, 33",
            "selfPickup": false,
            "time": ["09:00", "22:00"],
            "lat": "50.4438",
            "lng": "25.3189",
            "url": "stores/3"
        },
        {
            "id": 3,
            "title": "Степана Бандери, 13",
            "phone": "+38 (066) 171-13-27",
            "adress": "м. Луцьк, Степана Бандери, 13",
            "selfPickup": false,
            "time": ["09:00", "22:00"],
            "lat": "50.7438",
            "lng": "25.3189",
            "url": "stores/6"
        }
    ],
    "city": [
        { "id": 1, "city": "Луцьк" },
        { "id": 2, "city": "Луцьк2" },
        { "id": 3, "city": "Луцьк3" },
        { "id": 4, "city": "Луцьк4" },
        { "id": 5, "city": "ковель" },
        { "id": 6, "city": "ковель2" },
        { "id": 7, "city": "ковель3" },
        { "id": 8, "city": "ковель4" }
    ],
    "profile": { "name": "typicode" }
}
